{
  "name": "Italia",
  "code": "IT",
  "provinces": [
    {
      "name": "Abruzzo",
      "districts": [
        {
          "name": "Abbateggio",
          "latitude": 42.2050404,
          "longitude": 14.0396555
        },
        {
          "name": "Acciano",
          "latitude": 42.1949344,
          "longitude": 13.708051
        },
        {
          "name": "Aielli",
          "latitude": 42.0704477,
          "longitude": 13.5911871
        },
        {
          "name": "Alanno",
          "latitude": 42.2941318,
          "longitude": 13.9894251
        },
        {
          "name": "Alba Adriatica",
          "latitude": 42.821601,
          "longitude": 13.8986408
        },
        {
          "name": "Alfedena",
          "latitude": 41.7192532,
          "longitude": 14.0011512
        },
        {
          "name": "Altino",
          "latitude": 42.1090394,
          "longitude": 14.3553634
        },
        {
          "name": "Ancarano",
          "latitude": 42.8367386,
          "longitude": 13.74911
        },
        {
          "name": "Anversa degli Abruzzi",
          "latitude": 41.9964624,
          "longitude": 13.8172424
        },
        {
          "name": "Archi",
          "latitude": 42.0818856,
          "longitude": 14.3900862
        },
        {
          "name": "Ari",
          "latitude": 42.2897181,
          "longitude": 14.2577555
        },
        {
          "name": "Arielli",
          "latitude": 42.2577061,
          "longitude": 14.3027107
        },
        {
          "name": "Arsita",
          "latitude": 42.4695551,
          "longitude": 13.7696314
        },
        {
          "name": "Ateleta",
          "latitude": 41.8729877,
          "longitude": 14.1686084
        },
        {
          "name": "Atessa",
          "latitude": 42.0733432,
          "longitude": 14.4557265
        },
        {
          "name": "Atri",
          "latitude": 42.5885118,
          "longitude": 13.9814475
        },
        {
          "name": "Avezzano",
          "latitude": 42.040005,
          "longitude": 13.4363765
        },
        {
          "name": "Balsorano",
          "latitude": 41.8032369,
          "longitude": 13.5814505
        },
        {
          "name": "Barete",
          "latitude": 42.4496582,
          "longitude": 13.2816593
        },
        {
          "name": "Barisciano",
          "latitude": 42.3521379,
          "longitude": 13.5689142
        },
        {
          "name": "Barrea",
          "latitude": 41.7751501,
          "longitude": 13.9671508
        },
        {
          "name": "Basciano",
          "latitude": 42.5863422,
          "longitude": 13.7329504
        },
        {
          "name": "Bellante",
          "latitude": 42.7434796,
          "longitude": 13.8077826
        },
        {
          "name": "Bisegna",
          "latitude": 41.9222122,
          "longitude": 13.7870394
        },
        {
          "name": "Bisenti",
          "latitude": 42.526038,
          "longitude": 13.8010717
        },
        {
          "name": "Bolognano",
          "latitude": 42.211766,
          "longitude": 13.9515477
        },
        {
          "name": "Bomba",
          "latitude": 42.0363579,
          "longitude": 14.372474
        },
        {
          "name": "Borrello",
          "latitude": 41.9153313,
          "longitude": 14.3161207
        },
        {
          "name": "Brittoli",
          "latitude": 42.3038369,
          "longitude": 13.8560368
        },
        {
          "name": "Bucchianico",
          "latitude": 42.3084559,
          "longitude": 14.1705874
        },
        {
          "name": "Bugnara",
          "latitude": 42.0090215,
          "longitude": 13.8577804
        },
        {
          "name": "Bussi sul Tirino",
          "latitude": 42.225207,
          "longitude": 13.8390646
        },
        {
          "name": "Cagnano Amiterno",
          "latitude": 42.4488789,
          "longitude": 13.2037701
        },
        {
          "name": "Calascio",
          "latitude": 42.3738865,
          "longitude": 13.7016114
        },
        {
          "name": "Campli",
          "latitude": 42.7435185,
          "longitude": 13.6960936
        },
        {
          "name": "Campo di Giove",
          "latitude": 41.9895941,
          "longitude": 14.0516685
        },
        {
          "name": "Campotosto",
          "latitude": 42.5495327,
          "longitude": 13.3623383
        },
        {
          "name": "Canistro",
          "latitude": 41.9342168,
          "longitude": 13.4004549
        },
        {
          "name": "Canosa Sannita",
          "latitude": 42.290348,
          "longitude": 14.2927986
        },
        {
          "name": "Cansano",
          "latitude": 41.9826384,
          "longitude": 14.0272456
        },
        {
          "name": "Canzano",
          "latitude": 42.6574274,
          "longitude": 13.8060852
        },
        {
          "name": "Capestrano",
          "latitude": 42.2732345,
          "longitude": 13.7822859
        },
        {
          "name": "Capistrello",
          "latitude": 41.9797679,
          "longitude": 13.3801636
        },
        {
          "name": "Capitignano",
          "latitude": 42.5259918,
          "longitude": 13.3015776
        },
        {
          "name": "Caporciano",
          "latitude": 42.2513689,
          "longitude": 13.6705775
        },
        {
          "name": "Cappadocia",
          "latitude": 42.0007324,
          "longitude": 13.2450188
        },
        {
          "name": "Cappelle sul Tavo",
          "latitude": 42.4719494,
          "longitude": 14.1051673
        },
        {
          "name": "Caramanico Terme",
          "latitude": 42.1565602,
          "longitude": 14.0391548
        },
        {
          "name": "Carapelle Calvisio",
          "latitude": 42.3554325,
          "longitude": 13.6884482
        },
        {
          "name": "Carpineto Sinello",
          "latitude": 41.9966867,
          "longitude": 14.4967248
        },
        {
          "name": "Carpineto della Nora",
          "latitude": 42.3431914,
          "longitude": 13.841793
        },
        {
          "name": "Carsoli",
          "latitude": 42.1228657,
          "longitude": 13.111956
        },
        {
          "name": "Carunchio",
          "latitude": 41.9200197,
          "longitude": 14.5429974
        },
        {
          "name": "Casacanditella",
          "latitude": 42.2648655,
          "longitude": 14.2177628
        },
        {
          "name": "Casalanguida",
          "latitude": 42.0497391,
          "longitude": 14.5116188
        },
        {
          "name": "Casalbordino",
          "latitude": 42.1659911,
          "longitude": 14.5714676
        },
        {
          "name": "Casalincontrada",
          "latitude": 42.2985193,
          "longitude": 14.1212533
        },
        {
          "name": "Casoli",
          "latitude": 42.1251972,
          "longitude": 14.3063865
        },
        {
          "name": "Castel Castagna",
          "latitude": 42.5443571,
          "longitude": 13.7311616
        },
        {
          "name": "Castel Frentano",
          "latitude": 42.1984249,
          "longitude": 14.353091
        },
        {
          "name": "Castel del Monte",
          "latitude": 42.3915154,
          "longitude": 13.7492814
        },
        {
          "name": "Castel di Ieri",
          "latitude": 42.094038,
          "longitude": 13.7512862
        },
        {
          "name": "Castel di Sangro",
          "latitude": 41.7746295,
          "longitude": 14.1240121
        },
        {
          "name": "Castelguidone",
          "latitude": 41.8253017,
          "longitude": 14.5353963
        },
        {
          "name": "Castellafiume",
          "latitude": 41.9773882,
          "longitude": 13.327284
        },
        {
          "name": "Castellalto",
          "latitude": 42.6622804,
          "longitude": 13.8369007
        },
        {
          "name": "Castelli",
          "latitude": 42.4856744,
          "longitude": 13.7269242
        },
        {
          "name": "Castelvecchio Calvisio",
          "latitude": 42.3608613,
          "longitude": 13.6871427
        },
        {
          "name": "Castelvecchio Subequo",
          "latitude": 42.1077413,
          "longitude": 13.7262937
        },
        {
          "name": "Castiglione Messer Marino",
          "latitude": 41.8725287,
          "longitude": 14.4461268
        },
        {
          "name": "Castiglione Messer Raimondo",
          "latitude": 42.521585,
          "longitude": 13.8756137
        },
        {
          "name": "Castiglione a Casauria",
          "latitude": 42.232374,
          "longitude": 13.897607
        },
        {
          "name": "Castilenti",
          "latitude": 42.5324059,
          "longitude": 13.9457041
        },
        {
          "name": "Catignano",
          "latitude": 42.3481419,
          "longitude": 13.9719562
        },
        {
          "name": "Celano",
          "latitude": 42.0760804,
          "longitude": 13.5983406
        },
        {
          "name": "Celenza sul Trigno",
          "latitude": 41.881018,
          "longitude": 14.586194
        },
        {
          "name": "Cellino Attanasio",
          "latitude": 42.5844168,
          "longitude": 13.8600384
        },
        {
          "name": "Cepagatti",
          "latitude": 42.3742328,
          "longitude": 14.1096689
        },
        {
          "name": "Cerchio",
          "latitude": 42.0517019,
          "longitude": 13.6024641
        },
        {
          "name": "Cermignano",
          "latitude": 42.5869969,
          "longitude": 13.8044651
        },
        {
          "name": "Chieti",
          "latitude": 42.3680911,
          "longitude": 14.1526359
        },
        {
          "name": "Città Sant'Angelo",
          "latitude": 42.5129017,
          "longitude": 14.0720712
        },
        {
          "name": "Civita d'Antino",
          "latitude": 41.8860691,
          "longitude": 13.475791
        },
        {
          "name": "Civitaluparella",
          "latitude": 41.955647,
          "longitude": 14.2854151
        },
        {
          "name": "Civitaquana",
          "latitude": 42.3447202,
          "longitude": 13.9187207
        },
        {
          "name": "Civitella Alfedena",
          "latitude": 41.7793178,
          "longitude": 13.923753
        },
        {
          "name": "Civitella Casanova",
          "latitude": 42.3837184,
          "longitude": 13.873226
        },
        {
          "name": "Civitella Messer Raimondo",
          "latitude": 42.0849899,
          "longitude": 14.2168167
        },
        {
          "name": "Civitella Roveto",
          "latitude": 41.8967838,
          "longitude": 13.4129151
        },
        {
          "name": "Civitella del Tronto",
          "latitude": 42.7738725,
          "longitude": 13.6670979
        },
        {
          "name": "Cocullo",
          "latitude": 42.0320842,
          "longitude": 13.772929
        },
        {
          "name": "Collarmele",
          "latitude": 42.0571097,
          "longitude": 13.6498362
        },
        {
          "name": "Collecorvino",
          "latitude": 42.4633796,
          "longitude": 14.0459029
        },
        {
          "name": "Colledara",
          "latitude": 42.5530938,
          "longitude": 13.6864528
        },
        {
          "name": "Colledimacine",
          "latitude": 42.0012333,
          "longitude": 14.2109432
        },
        {
          "name": "Colledimezzo",
          "latitude": 41.989587,
          "longitude": 14.386697
        },
        {
          "name": "Collelongo",
          "latitude": 41.8874118,
          "longitude": 13.5739657
        },
        {
          "name": "Collepietro",
          "latitude": 42.2160072,
          "longitude": 13.783574
        },
        {
          "name": "Colonnella",
          "latitude": 42.862916,
          "longitude": 13.8729321
        },
        {
          "name": "Controguerra",
          "latitude": 42.8571625,
          "longitude": 13.816507
        },
        {
          "name": "Corfinio",
          "latitude": 42.1358003,
          "longitude": 13.8653965
        },
        {
          "name": "Corropoli",
          "latitude": 42.8233255,
          "longitude": 13.8590693
        },
        {
          "name": "Cortino",
          "latitude": 42.6322529,
          "longitude": 13.4904107
        },
        {
          "name": "Corvara",
          "latitude": 42.2770844,
          "longitude": 13.8725634
        },
        {
          "name": "Crecchio",
          "latitude": 42.2949061,
          "longitude": 14.3339223
        },
        {
          "name": "Crognaleto",
          "latitude": 42.5535869,
          "longitude": 13.4828349
        },
        {
          "name": "Cugnoli",
          "latitude": 42.3091879,
          "longitude": 13.9459331
        },
        {
          "name": "Cupello",
          "latitude": 42.0433884,
          "longitude": 14.6880082
        },
        {
          "name": "Dogliola",
          "latitude": 41.9509653,
          "longitude": 14.6475134
        },
        {
          "name": "Elice",
          "latitude": 42.5163069,
          "longitude": 13.9807888
        },
        {
          "name": "Fagnano Alto",
          "latitude": 42.2450195,
          "longitude": 13.5917951
        },
        {
          "name": "Fallo",
          "latitude": 41.9500515,
          "longitude": 14.3246867
        },
        {
          "name": "Fano Adriano",
          "latitude": 42.5230621,
          "longitude": 13.5400224
        },
        {
          "name": "Fara Filiorum Petri",
          "latitude": 42.2508439,
          "longitude": 14.1748933
        },
        {
          "name": "Fara San Martino",
          "latitude": 42.0914747,
          "longitude": 14.1602865
        },
        {
          "name": "Farindola",
          "latitude": 42.4237765,
          "longitude": 13.819344
        },
        {
          "name": "Filetto",
          "latitude": 42.2349776,
          "longitude": 14.2439479
        },
        {
          "name": "Fontecchio",
          "latitude": 42.2258047,
          "longitude": 13.6078868
        },
        {
          "name": "Fossa",
          "latitude": 42.3033914,
          "longitude": 13.4953858
        },
        {
          "name": "Fossacesia",
          "latitude": 42.2366191,
          "longitude": 14.4826559
        },
        {
          "name": "Fraine",
          "latitude": 41.9047691,
          "longitude": 14.491065
        },
        {
          "name": "Francavilla al Mare",
          "latitude": 42.4126934,
          "longitude": 14.2743928
        },
        {
          "name": "Fresagrandinaria",
          "latitude": 41.986321,
          "longitude": 14.6589708
        },
        {
          "name": "Frisa",
          "latitude": 42.2661662,
          "longitude": 14.3805015
        },
        {
          "name": "Furci",
          "latitude": 42.0328441,
          "longitude": 14.6127385
        },
        {
          "name": "Gagliano Aterno",
          "latitude": 42.1195357,
          "longitude": 13.672659
        },
        {
          "name": "Gamberale",
          "latitude": 41.9033322,
          "longitude": 14.210834
        },
        {
          "name": "Gessopalena",
          "latitude": 42.0501464,
          "longitude": 14.2697459
        },
        {
          "name": "Gioia dei Marsi",
          "latitude": 41.9227665,
          "longitude": 13.7420213
        },
        {
          "name": "Gissi",
          "latitude": 42.0446699,
          "longitude": 14.5705911
        },
        {
          "name": "Giuliano Teatino",
          "latitude": 42.3137169,
          "longitude": 14.2833791
        },
        {
          "name": "Giulianova",
          "latitude": 42.7447328,
          "longitude": 13.9417658
        },
        {
          "name": "Goriano Sicoli",
          "latitude": 42.0694615,
          "longitude": 13.7713423
        },
        {
          "name": "Guardiagrele",
          "latitude": 42.1884845,
          "longitude": 14.2310419
        },
        {
          "name": "Guilmi",
          "latitude": 41.993852,
          "longitude": 14.4859545
        },
        {
          "name": "Introdacqua",
          "latitude": 41.998297,
          "longitude": 13.892134
        },
        {
          "name": "Isola del Gran Sasso d'Italia",
          "latitude": 42.4893792,
          "longitude": 13.6371001
        },
        {
          "name": "L'Aquila",
          "latitude": 42.3540992,
          "longitude": 13.4156644
        },
        {
          "name": "Lama dei Peligni",
          "latitude": 42.0544819,
          "longitude": 14.1614473
        },
        {
          "name": "Lanciano",
          "latitude": 42.2118509,
          "longitude": 14.4036846
        },
        {
          "name": "Lecce nei Marsi",
          "latitude": 41.8949137,
          "longitude": 13.6888147
        },
        {
          "name": "Lentella",
          "latitude": 41.9974525,
          "longitude": 14.6907847
        },
        {
          "name": "Lettomanoppello",
          "latitude": 42.2234049,
          "longitude": 14.0571808
        },
        {
          "name": "Lettopalena",
          "latitude": 42.0013954,
          "longitude": 14.1572655
        },
        {
          "name": "Liscia",
          "latitude": 41.9529424,
          "longitude": 14.5532092
        },
        {
          "name": "Loreto Aprutino",
          "latitude": 42.4154458,
          "longitude": 13.9723971
        },
        {
          "name": "Luco dei Marsi",
          "latitude": 41.9514628,
          "longitude": 13.472312
        },
        {
          "name": "Lucoli",
          "latitude": 42.2572709,
          "longitude": 13.376955
        },
        {
          "name": "Magliano de' Marsi",
          "latitude": 42.1262016,
          "longitude": 13.3191715
        },
        {
          "name": "Manoppello",
          "latitude": 42.2700646,
          "longitude": 14.0672203
        },
        {
          "name": "Martinsicuro",
          "latitude": 42.8641734,
          "longitude": 13.9090131
        },
        {
          "name": "Massa d'Albe",
          "latitude": 42.1201748,
          "longitude": 13.4296311
        },
        {
          "name": "Miglianico",
          "latitude": 42.3537788,
          "longitude": 14.2870739
        },
        {
          "name": "Molina Aterno",
          "latitude": 42.1495537,
          "longitude": 13.7433757
        },
        {
          "name": "Montazzoli",
          "latitude": 41.9560043,
          "longitude": 14.4390139
        },
        {
          "name": "Montebello di Bertona",
          "latitude": 42.4176355,
          "longitude": 13.8634583
        },
        {
          "name": "Montebello sul Sangro",
          "latitude": 41.9880081,
          "longitude": 14.3215141
        },
        {
          "name": "Monteferrante",
          "latitude": 41.9342961,
          "longitude": 14.3857972
        },
        {
          "name": "Montefino",
          "latitude": 42.5597192,
          "longitude": 13.8950887
        },
        {
          "name": "Montelapiano",
          "latitude": 41.9679823,
          "longitude": 14.3265576
        },
        {
          "name": "Montenerodomo",
          "latitude": 41.9604166,
          "longitude": 14.2327021
        },
        {
          "name": "Monteodorisio",
          "latitude": 42.1014664,
          "longitude": 14.6429198
        },
        {
          "name": "Montereale",
          "latitude": 42.528419,
          "longitude": 13.2351215
        },
        {
          "name": "Montesilvano",
          "latitude": 42.4962364,
          "longitude": 14.1428514
        },
        {
          "name": "Montorio al Vomano",
          "latitude": 42.5766493,
          "longitude": 13.6394832
        },
        {
          "name": "Morino",
          "latitude": 41.8455883,
          "longitude": 13.4386837
        },
        {
          "name": "Morro d'Oro",
          "latitude": 42.6593214,
          "longitude": 13.9393809
        },
        {
          "name": "Mosciano Sant'Angelo",
          "latitude": 42.7401907,
          "longitude": 13.8959357
        },
        {
          "name": "Moscufo",
          "latitude": 42.4377161,
          "longitude": 14.0629522
        },
        {
          "name": "Mozzagrogna",
          "latitude": 42.1943776,
          "longitude": 14.4470606
        },
        {
          "name": "Navelli",
          "latitude": 42.2360491,
          "longitude": 13.7454523
        },
        {
          "name": "Nereto",
          "latitude": 42.8195823,
          "longitude": 13.8149515
        },
        {
          "name": "Nocciano",
          "latitude": 42.3416433,
          "longitude": 13.9989723
        },
        {
          "name": "Notaresco",
          "latitude": 42.6619444,
          "longitude": 13.8893716
        },
        {
          "name": "Ocre",
          "latitude": 42.2811404,
          "longitude": 13.4701189
        },
        {
          "name": "Ofena",
          "latitude": 42.3450316,
          "longitude": 13.7668627
        },
        {
          "name": "Opi",
          "latitude": 41.7727306,
          "longitude": 13.8539866
        },
        {
          "name": "Oricola",
          "latitude": 42.0635892,
          "longitude": 13.0446534
        },
        {
          "name": "Orsogna",
          "latitude": 42.2406649,
          "longitude": 14.2988442
        },
        {
          "name": "Ortona",
          "latitude": 42.3386177,
          "longitude": 14.3762975
        },
        {
          "name": "Ortona dei Marsi",
          "latitude": 41.9951338,
          "longitude": 13.7393745
        },
        {
          "name": "Ortucchio",
          "latitude": 41.9493314,
          "longitude": 13.6230308
        },
        {
          "name": "Ovindoli",
          "latitude": 42.1340731,
          "longitude": 13.519212
        },
        {
          "name": "Pacentro",
          "latitude": 42.0603124,
          "longitude": 14.0297086
        },
        {
          "name": "Paglieta",
          "latitude": 42.1703177,
          "longitude": 14.4877451
        },
        {
          "name": "Palena",
          "latitude": 41.9697464,
          "longitude": 14.1344844
        },
        {
          "name": "Palmoli",
          "latitude": 41.9503781,
          "longitude": 14.6002258
        },
        {
          "name": "Palombaro",
          "latitude": 42.1273713,
          "longitude": 14.2139006
        },
        {
          "name": "Penna Sant'Andrea",
          "latitude": 42.5838221,
          "longitude": 13.7708992
        },
        {
          "name": "Pennadomo",
          "latitude": 42.0082079,
          "longitude": 14.3184408
        },
        {
          "name": "Pennapiedimonte",
          "latitude": 42.1435815,
          "longitude": 14.1734248
        },
        {
          "name": "Penne",
          "latitude": 42.4605732,
          "longitude": 13.8870862
        },
        {
          "name": "Perano",
          "latitude": 42.1092547,
          "longitude": 14.3937979
        },
        {
          "name": "Pereto",
          "latitude": 42.046076,
          "longitude": 13.1254112
        },
        {
          "name": "Pescara",
          "latitude": 42.4555114,
          "longitude": 14.2033009
        },
        {
          "name": "Pescasseroli",
          "latitude": 41.8116367,
          "longitude": 13.7927084
        },
        {
          "name": "Pescina",
          "latitude": 42.0188396,
          "longitude": 13.6305779
        },
        {
          "name": "Pescocostanzo",
          "latitude": 41.9181085,
          "longitude": 14.0634904
        },
        {
          "name": "Pescosansonesco",
          "latitude": 42.2429151,
          "longitude": 13.8775237
        },
        {
          "name": "Pettorano sul Gizio",
          "latitude": 41.9647478,
          "longitude": 13.9437862
        },
        {
          "name": "Pianella",
          "latitude": 42.393972,
          "longitude": 14.0603216
        },
        {
          "name": "Picciano",
          "latitude": 42.4784488,
          "longitude": 13.9857189
        },
        {
          "name": "Pietracamela",
          "latitude": 42.5005426,
          "longitude": 13.5496356
        },
        {
          "name": "Pietraferrazzana",
          "latitude": 41.9737848,
          "longitude": 14.3813998
        },
        {
          "name": "Pietranico",
          "latitude": 42.2877489,
          "longitude": 13.9146947
        },
        {
          "name": "Pineto",
          "latitude": 42.6151532,
          "longitude": 14.0482912
        },
        {
          "name": "Pizzoferrato",
          "latitude": 41.9250822,
          "longitude": 14.2374745
        },
        {
          "name": "Pizzoli",
          "latitude": 42.445167,
          "longitude": 13.338059
        },
        {
          "name": "Poggio Picenze",
          "latitude": 42.320006,
          "longitude": 13.537617
        },
        {
          "name": "Poggiofiorito",
          "latitude": 42.2510668,
          "longitude": 14.325856
        },
        {
          "name": "Pollutri",
          "latitude": 42.1385897,
          "longitude": 14.5906674
        },
        {
          "name": "Popoli Terme",
          "latitude": 42.1713844,
          "longitude": 13.844957
        },
        {
          "name": "Prata d'Ansidonia",
          "latitude": 42.2756564,
          "longitude": 13.6211659
        },
        {
          "name": "Pratola Peligna",
          "latitude": 42.097327,
          "longitude": 13.9050532
        },
        {
          "name": "Pretoro",
          "latitude": 42.2002502,
          "longitude": 14.1376718
        },
        {
          "name": "Prezza",
          "latitude": 42.0599248,
          "longitude": 13.8455797
        },
        {
          "name": "Quadri",
          "latitude": 41.9276805,
          "longitude": 14.2723539
        },
        {
          "name": "Raiano",
          "latitude": 42.102536,
          "longitude": 13.8098051
        },
        {
          "name": "Rapino",
          "latitude": 42.1981641,
          "longitude": 14.166187
        },
        {
          "name": "Ripa Teatina",
          "latitude": 42.3688386,
          "longitude": 14.2444366
        },
        {
          "name": "Rivisondoli",
          "latitude": 41.8669734,
          "longitude": 14.0585822
        },
        {
          "name": "Rocca Pia",
          "latitude": 41.9112636,
          "longitude": 13.9873453
        },
        {
          "name": "Rocca San Giovanni",
          "latitude": 42.2601776,
          "longitude": 14.4652775
        },
        {
          "name": "Rocca Santa Maria",
          "latitude": 42.6827768,
          "longitude": 13.4783638
        },
        {
          "name": "Rocca di Botte",
          "latitude": 42.0209769,
          "longitude": 13.1274623
        },
        {
          "name": "Rocca di Cambio",
          "latitude": 42.2278844,
          "longitude": 13.4765034
        },
        {
          "name": "Rocca di Mezzo",
          "latitude": 42.2130741,
          "longitude": 13.4931288
        },
        {
          "name": "Roccacasale",
          "latitude": 42.132422,
          "longitude": 13.8932633
        },
        {
          "name": "Roccamontepiano",
          "latitude": 42.2529388,
          "longitude": 14.1338497
        },
        {
          "name": "Roccamorice",
          "latitude": 42.1918401,
          "longitude": 14.0766489
        },
        {
          "name": "Roccaraso",
          "latitude": 41.8419321,
          "longitude": 14.0891625
        },
        {
          "name": "Roccascalegna",
          "latitude": 42.0707606,
          "longitude": 14.3227125
        },
        {
          "name": "Roccaspinalveti",
          "latitude": 41.9317838,
          "longitude": 14.4648184
        },
        {
          "name": "Roio del Sangro",
          "latitude": 41.9157819,
          "longitude": 14.3727966
        },
        {
          "name": "Rosciano",
          "latitude": 42.3356758,
          "longitude": 14.0489645
        },
        {
          "name": "Rosello",
          "latitude": 41.8967571,
          "longitude": 14.3516415
        },
        {
          "name": "Roseto degli Abruzzi",
          "latitude": 42.685704,
          "longitude": 13.9792149
        },
        {
          "name": "Salle",
          "latitude": 42.155131,
          "longitude": 13.940969
        },
        {
          "name": "San Benedetto dei Marsi",
          "latitude": 42.0102573,
          "longitude": 13.5948652
        },
        {
          "name": "San Benedetto in Perillis",
          "latitude": 42.1788676,
          "longitude": 13.7735019
        },
        {
          "name": "San Buono",
          "latitude": 41.9989025,
          "longitude": 14.5862628
        },
        {
          "name": "San Demetrio ne' Vestini",
          "latitude": 42.276476,
          "longitude": 13.5589216
        },
        {
          "name": "San Giovanni Lipioni",
          "latitude": 41.843166,
          "longitude": 14.5715904
        },
        {
          "name": "San Giovanni Teatino",
          "latitude": 42.4130442,
          "longitude": 14.1938507
        },
        {
          "name": "San Martino sulla Marrucina",
          "latitude": 42.2293526,
          "longitude": 14.2157128
        },
        {
          "name": "San Pio delle Camere",
          "latitude": 42.2918045,
          "longitude": 13.6525178
        },
        {
          "name": "San Salvo",
          "latitude": 42.0475259,
          "longitude": 14.7480748
        },
        {
          "name": "San Valentino in Abruzzo Citeriore",
          "latitude": 42.2305618,
          "longitude": 13.9816592
        },
        {
          "name": "San Vincenzo Valle Roveto",
          "latitude": 41.8299311,
          "longitude": 13.5276258
        },
        {
          "name": "San Vito Chietino",
          "latitude": 42.2945297,
          "longitude": 14.4352477
        },
        {
          "name": "Sant'Egidio alla Vibrata",
          "latitude": 42.8236577,
          "longitude": 13.7101284
        },
        {
          "name": "Sant'Eufemia a Maiella",
          "latitude": 42.1048021,
          "longitude": 14.0331628
        },
        {
          "name": "Sant'Eusanio Forconese",
          "latitude": 42.2844809,
          "longitude": 13.5144662
        },
        {
          "name": "Sant'Eusanio del Sangro",
          "latitude": 42.1597989,
          "longitude": 14.3559937
        },
        {
          "name": "Sant'Omero",
          "latitude": 42.7911817,
          "longitude": 13.8310775
        },
        {
          "name": "Santa Maria Imbaro",
          "latitude": 42.2136238,
          "longitude": 14.4536612
        },
        {
          "name": "Sante Marie",
          "latitude": 42.1180657,
          "longitude": 13.2073769
        },
        {
          "name": "Santo Stefano di Sessanio",
          "latitude": 42.3829602,
          "longitude": 13.6453938
        },
        {
          "name": "Scafa",
          "latitude": 42.2510319,
          "longitude": 13.9897221
        },
        {
          "name": "Scanno",
          "latitude": 41.8865647,
          "longitude": 13.9091507
        },
        {
          "name": "Scerni",
          "latitude": 42.093386,
          "longitude": 14.5851795
        },
        {
          "name": "Schiavi di Abruzzo",
          "latitude": 41.805687,
          "longitude": 14.4902211
        },
        {
          "name": "Scontrone",
          "latitude": 41.768254,
          "longitude": 14.0596558
        },
        {
          "name": "Scoppito",
          "latitude": 42.3606825,
          "longitude": 13.2233507
        },
        {
          "name": "Scurcola Marsicana",
          "latitude": 42.0609586,
          "longitude": 13.3586874
        },
        {
          "name": "Secinaro",
          "latitude": 42.1582607,
          "longitude": 13.6419676
        },
        {
          "name": "Serramonacesca",
          "latitude": 42.2345423,
          "longitude": 14.1033445
        },
        {
          "name": "Silvi",
          "latitude": 42.5524286,
          "longitude": 14.1017818
        },
        {
          "name": "Spoltore",
          "latitude": 42.4381066,
          "longitude": 14.1417274
        },
        {
          "name": "Sulmona",
          "latitude": 42.0689421,
          "longitude": 13.9216533
        },
        {
          "name": "Tagliacozzo",
          "latitude": 42.0654331,
          "longitude": 13.2479404
        },
        {
          "name": "Taranta Peligna",
          "latitude": 42.0350842,
          "longitude": 14.1468044
        },
        {
          "name": "Teramo",
          "latitude": 42.6572162,
          "longitude": 13.7051568
        },
        {
          "name": "Tione degli Abruzzi",
          "latitude": 42.1964191,
          "longitude": 13.64146
        },
        {
          "name": "Tocco da Casauria",
          "latitude": 42.1961527,
          "longitude": 13.9053379
        },
        {
          "name": "Tollo",
          "latitude": 42.3461585,
          "longitude": 14.3187246
        },
        {
          "name": "Torano Nuovo",
          "latitude": 42.8248221,
          "longitude": 13.7751371
        },
        {
          "name": "Torino di Sangro",
          "latitude": 42.1943855,
          "longitude": 14.5598062
        },
        {
          "name": "Tornareccio",
          "latitude": 42.0281359,
          "longitude": 14.4240676
        },
        {
          "name": "Tornimparte",
          "latitude": 42.2863736,
          "longitude": 13.2819521
        },
        {
          "name": "Torre de' Passeri",
          "latitude": 42.2536627,
          "longitude": 13.9334945
        },
        {
          "name": "Torrebruna",
          "latitude": 41.8685533,
          "longitude": 14.5364922
        },
        {
          "name": "Torrevecchia Teatina",
          "latitude": 42.393773,
          "longitude": 14.229374
        },
        {
          "name": "Torricella Peligna",
          "latitude": 42.0279062,
          "longitude": 14.2743114
        },
        {
          "name": "Torricella Sicura",
          "latitude": 42.6759805,
          "longitude": 13.6105253
        },
        {
          "name": "Tortoreto",
          "latitude": 42.7986564,
          "longitude": 13.9011695
        },
        {
          "name": "Tossicia",
          "latitude": 42.5526759,
          "longitude": 13.6416191
        },
        {
          "name": "Trasacco",
          "latitude": 41.9440425,
          "longitude": 13.5442867
        },
        {
          "name": "Treglio",
          "latitude": 42.2634072,
          "longitude": 14.4229806
        },
        {
          "name": "Tufillo",
          "latitude": 41.9192399,
          "longitude": 14.6331361
        },
        {
          "name": "Turrivalignani",
          "latitude": 42.2666253,
          "longitude": 14.0265042
        },
        {
          "name": "Vacri",
          "latitude": 42.2911862,
          "longitude": 14.2323462
        },
        {
          "name": "Valle Castellana",
          "latitude": 42.7329091,
          "longitude": 13.4794989
        },
        {
          "name": "Vasto",
          "latitude": 42.1166226,
          "longitude": 14.6969268
        },
        {
          "name": "Vicoli",
          "latitude": 42.3426377,
          "longitude": 13.8932267
        },
        {
          "name": "Villa Celiera",
          "latitude": 42.3860334,
          "longitude": 13.8452019
        },
        {
          "name": "Villa Sant'Angelo",
          "latitude": 42.2660257,
          "longitude": 13.5371654
        },
        {
          "name": "Villa Santa Lucia degli Abruzzi",
          "latitude": 42.3360812,
          "longitude": 13.7768691
        },
        {
          "name": "Villa Santa Maria",
          "latitude": 41.9697249,
          "longitude": 14.3525552
        },
        {
          "name": "Villalago",
          "latitude": 41.9347382,
          "longitude": 13.8226158
        },
        {
          "name": "Villalfonsina",
          "latitude": 42.17745,
          "longitude": 14.5698327
        },
        {
          "name": "Villamagna",
          "latitude": 42.3292443,
          "longitude": 14.2351032
        },
        {
          "name": "Villavallelonga",
          "latitude": 41.8453614,
          "longitude": 13.6705648
        },
        {
          "name": "Villetta Barrea",
          "latitude": 41.8014907,
          "longitude": 13.9347096
        },
        {
          "name": "Vittorito",
          "latitude": 42.1357521,
          "longitude": 13.8074229
        }
      ],
      "latitude": 42.2885598,
      "longitude": 13.9014306
    },
    {
      "name": "Auvergne-Rhône-Alpes",
      "districts": [
        {
          "name": "Abondance",
          "latitude": 46.2527779,
          "longitude": 6.7333521
        },
        {
          "name": "Aboën",
          "latitude": 45.4096269,
          "longitude": 4.1270354
        },
        {
          "name": "Abrest",
          "latitude": 46.0962847,
          "longitude": 3.4514296
        },
        {
          "name": "Accons",
          "latitude": 44.8914702,
          "longitude": 4.3945565
        },
        {
          "name": "Affoux",
          "latitude": 45.844796,
          "longitude": 4.4115505
        },
        {
          "name": "Agnat",
          "latitude": 45.3438578,
          "longitude": 3.4545523
        },
        {
          "name": "Agnin",
          "latitude": 45.3346967,
          "longitude": 4.8598291
        },
        {
          "name": "Agonges",
          "latitude": 46.6238503,
          "longitude": 3.1492846
        },
        {
          "name": "Aiguebelette-le-Lac",
          "latitude": 45.5446642,
          "longitude": 5.811393
        },
        {
          "name": "Aigueperse",
          "latitude": 46.0144776,
          "longitude": 3.2024603
        },
        {
          "name": "Aigueperse",
          "latitude": 46.28234,
          "longitude": 4.4268027
        },
        {
          "name": "Aiguilhe",
          "latitude": 45.0528297,
          "longitude": 3.8851416
        },
        {
          "name": "Ailhon",
          "latitude": 44.5992534,
          "longitude": 4.336263
        },
        {
          "name": "Ailleux",
          "latitude": 45.7981931,
          "longitude": 3.9363873
        },
        {
          "name": "Aillon-le-Jeune",
          "latitude": 45.6032244,
          "longitude": 6.0863112
        },
        {
          "name": "Aillon-le-Vieux",
          "latitude": 45.6528978,
          "longitude": 6.0796874
        },
        {
          "name": "Aime-la-Plagne",
          "latitude": 45.5661532,
          "longitude": 6.6118683
        },
        {
          "name": "Ainay-le-Château",
          "latitude": 46.7185088,
          "longitude": 2.7159512
        },
        {
          "name": "Aiton",
          "latitude": 45.5758633,
          "longitude": 6.2543171
        },
        {
          "name": "Aix-la-Fayette",
          "latitude": 45.508139,
          "longitude": 3.529613
        },
        {
          "name": "Aix-les-Bains",
          "latitude": 45.694307,
          "longitude": 5.9045719
        },
        {
          "name": "Aizac",
          "latitude": 44.7191686,
          "longitude": 4.332937
        },
        {
          "name": "Ajoux",
          "latitude": 44.7541492,
          "longitude": 4.4867778
        },
        {
          "name": "Alba-la-Romaine",
          "latitude": 44.5593524,
          "longitude": 4.59555
        },
        {
          "name": "Albepierre-Bredons",
          "latitude": 45.0777461,
          "longitude": 2.8269751
        },
        {
          "name": "Albertville",
          "latitude": 45.6646782,
          "longitude": 6.410007
        },
        {
          "name": "Albiez-Montrond",
          "latitude": 45.1894863,
          "longitude": 6.3428637
        },
        {
          "name": "Albiez-le-Jeune",
          "latitude": 45.2398535,
          "longitude": 6.3586176
        },
        {
          "name": "Albigny-sur-Saône",
          "latitude": 45.8667251,
          "longitude": 4.8285589
        },
        {
          "name": "Albon",
          "latitude": 45.2393691,
          "longitude": 4.8654453
        },
        {
          "name": "Albon-d'Ardèche",
          "latitude": 44.8167272,
          "longitude": 4.4180294
        },
        {
          "name": "Alboussière",
          "latitude": 44.9430115,
          "longitude": 4.7455551
        },
        {
          "name": "Alby-sur-Chéran",
          "latitude": 45.8145116,
          "longitude": 6.0196452
        },
        {
          "name": "Alex",
          "latitude": 45.8757345,
          "longitude": 6.2335412
        },
        {
          "name": "Aleyrac",
          "latitude": 44.4989879,
          "longitude": 4.945845
        },
        {
          "name": "Alissas",
          "latitude": 44.7087735,
          "longitude": 4.6138949
        },
        {
          "name": "Alix",
          "latitude": 45.9162045,
          "longitude": 4.6535684
        },
        {
          "name": "Alixan",
          "latitude": 44.9843397,
          "longitude": 5.016699
        },
        {
          "name": "Allan",
          "latitude": 44.4967375,
          "longitude": 4.8037417
        },
        {
          "name": "Allanche",
          "latitude": 45.2284755,
          "longitude": 2.9610009
        },
        {
          "name": "Allemond",
          "latitude": 45.1776487,
          "longitude": 6.0184536
        },
        {
          "name": "Alleuze",
          "latitude": 44.9544233,
          "longitude": 3.1040442
        },
        {
          "name": "Allevard",
          "latitude": 45.3758258,
          "longitude": 6.1200043
        },
        {
          "name": "Allex",
          "latitude": 44.7722668,
          "longitude": 4.916564
        },
        {
          "name": "Alleyrac",
          "latitude": 44.8953893,
          "longitude": 3.9899242
        },
        {
          "name": "Alleyras",
          "latitude": 44.9114005,
          "longitude": 3.6831031
        },
        {
          "name": "Allinges",
          "latitude": 46.3361716,
          "longitude": 6.4612315
        },
        {
          "name": "Allondaz",
          "latitude": 45.7101813,
          "longitude": 6.3713957
        },
        {
          "name": "Allonzier-la-Caille",
          "latitude": 45.9997195,
          "longitude": 6.1009139
        },
        {
          "name": "Ally",
          "latitude": 45.1670905,
          "longitude": 2.3302295
        },
        {
          "name": "Ally",
          "latitude": 45.1499987,
          "longitude": 3.3185174
        },
        {
          "name": "Allègre",
          "latitude": 45.186301,
          "longitude": 3.6876896
        },
        {
          "name": "Allèves",
          "latitude": 45.753901,
          "longitude": 6.0817925
        },
        {
          "name": "Amancy",
          "latitude": 46.0721703,
          "longitude": 6.3268797
        },
        {
          "name": "Ambel",
          "latitude": 44.7995966,
          "longitude": 5.9343173
        },
        {
          "name": "Ambert",
          "latitude": 45.5516374,
          "longitude": 3.7558052
        },
        {
          "name": "Ambierle",
          "latitude": 46.1066948,
          "longitude": 3.8952193
        },
        {
          "name": "Ambilly",
          "latitude": 46.1956768,
          "longitude": 6.2238759
        },
        {
          "name": "Ambléon",
          "latitude": 45.7480877,
          "longitude": 5.5927115
        },
        {
          "name": "Ambonil",
          "latitude": 44.7916526,
          "longitude": 4.9098375
        },
        {
          "name": "Ambronay",
          "latitude": 46.0099058,
          "longitude": 5.362639
        },
        {
          "name": "Ambutrix",
          "latitude": 45.934951,
          "longitude": 5.335583
        },
        {
          "name": "Ambérieu-en-Bugey",
          "latitude": 45.9575071,
          "longitude": 5.3705583
        },
        {
          "name": "Ambérieux",
          "latitude": 45.9263854,
          "longitude": 4.7427272
        },
        {
          "name": "Ambérieux-en-Dombes",
          "latitude": 45.9992151,
          "longitude": 4.9119138
        },
        {
          "name": "Amplepuis",
          "latitude": 45.9660318,
          "longitude": 4.3169943
        },
        {
          "name": "Ampuis",
          "latitude": 45.5033437,
          "longitude": 4.8078939
        },
        {
          "name": "Ancy",
          "latitude": 45.8361969,
          "longitude": 4.50979
        },
        {
          "name": "Ancône",
          "latitude": 44.5801622,
          "longitude": 4.7196209
        },
        {
          "name": "Andance",
          "latitude": 45.2315298,
          "longitude": 4.7972176
        },
        {
          "name": "Andancette",
          "latitude": 45.2472375,
          "longitude": 4.8126621
        },
        {
          "name": "Andelaroche",
          "latitude": 46.2478783,
          "longitude": 3.7401742
        },
        {
          "name": "Andelat",
          "latitude": 45.0652015,
          "longitude": 3.0550021
        },
        {
          "name": "Andert-et-Condon",
          "latitude": 45.7842726,
          "longitude": 5.6605531
        },
        {
          "name": "Andilly",
          "latitude": 46.0697241,
          "longitude": 6.0725986
        },
        {
          "name": "Andrézieux-Bouthéon",
          "latitude": 45.5352562,
          "longitude": 4.2772926
        },
        {
          "name": "Anglards-de-Saint-Flour",
          "latitude": 44.9877608,
          "longitude": 3.1632744
        },
        {
          "name": "Anglards-de-Salers",
          "latitude": 45.1989191,
          "longitude": 2.4851433
        },
        {
          "name": "Anglefort",
          "latitude": 45.9085762,
          "longitude": 5.7947622
        },
        {
          "name": "Anjou",
          "latitude": 45.3490992,
          "longitude": 4.8819484
        },
        {
          "name": "Annecy",
          "latitude": 45.9023476,
          "longitude": 6.1264027
        },
        {
          "name": "Annemasse",
          "latitude": 46.189031,
          "longitude": 6.2476099
        },
        {
          "name": "Anneyron",
          "latitude": 45.2718136,
          "longitude": 4.889177
        },
        {
          "name": "Annoisin-Chatelans",
          "latitude": 45.7656777,
          "longitude": 5.2890115
        },
        {
          "name": "Annonay",
          "latitude": 45.2448929,
          "longitude": 4.6418958
        },
        {
          "name": "Anse",
          "latitude": 45.9450694,
          "longitude": 4.7049727
        },
        {
          "name": "Anterrieux",
          "latitude": 44.826799,
          "longitude": 3.0638162
        },
        {
          "name": "Anthon",
          "latitude": 45.7812506,
          "longitude": 5.158254
        },
        {
          "name": "Anthy-sur-Léman",
          "latitude": 46.3537496,
          "longitude": 6.4273596
        },
        {
          "name": "Antignac",
          "latitude": 45.3543945,
          "longitude": 2.5609427
        },
        {
          "name": "Antoingt",
          "latitude": 45.5051415,
          "longitude": 3.1814894
        },
        {
          "name": "Anzat-le-Luguet",
          "latitude": 45.3265451,
          "longitude": 3.0103476
        },
        {
          "name": "Aoste",
          "latitude": 45.6014914,
          "longitude": 5.6112957
        },
        {
          "name": "Aouste-sur-Sye",
          "latitude": 44.7028881,
          "longitude": 5.0606875
        },
        {
          "name": "Apchat",
          "latitude": 45.3785366,
          "longitude": 3.1487432
        },
        {
          "name": "Apchon",
          "latitude": 45.2447154,
          "longitude": 2.7009085
        },
        {
          "name": "Apinac",
          "latitude": 45.3935145,
          "longitude": 3.993837
        },
        {
          "name": "Apprieu",
          "latitude": 45.3918937,
          "longitude": 5.4983876
        },
        {
          "name": "Apremont",
          "latitude": 46.2043951,
          "longitude": 5.6616107
        },
        {
          "name": "Apremont",
          "latitude": 45.4998608,
          "longitude": 5.9373492
        },
        {
          "name": "Aranc",
          "latitude": 45.9971796,
          "longitude": 5.5141434
        },
        {
          "name": "Arandas",
          "latitude": 45.8884976,
          "longitude": 5.498502
        },
        {
          "name": "Arandon-Passins",
          "latitude": 45.7063702,
          "longitude": 5.4375118
        },
        {
          "name": "Araules",
          "latitude": 45.0656415,
          "longitude": 4.1738531
        },
        {
          "name": "Arbent",
          "latitude": 46.2835876,
          "longitude": 5.6878432
        },
        {
          "name": "Arbigny",
          "latitude": 46.4807913,
          "longitude": 4.9611387
        },
        {
          "name": "Arbin",
          "latitude": 45.5114181,
          "longitude": 6.0733913
        },
        {
          "name": "Arboys-en-Bugey",
          "latitude": 45.7186671,
          "longitude": 5.6405017
        },
        {
          "name": "Arbusigny",
          "latitude": 46.0889976,
          "longitude": 6.2012176
        },
        {
          "name": "Arcens",
          "latitude": 44.8963888,
          "longitude": 4.3180081
        },
        {
          "name": "Archamps",
          "latitude": 46.1207599,
          "longitude": 6.14181
        },
        {
          "name": "Arches",
          "latitude": 45.2969063,
          "longitude": 2.3150841
        },
        {
          "name": "Archignat",
          "latitude": 46.3633749,
          "longitude": 2.4103514
        },
        {
          "name": "Arcinges",
          "latitude": 46.135072,
          "longitude": 4.2876898
        },
        {
          "name": "Arcon",
          "latitude": 46.0090961,
          "longitude": 3.8669468
        },
        {
          "name": "Arconsat",
          "latitude": 45.9002316,
          "longitude": 3.7151907
        },
        {
          "name": "Ardes",
          "latitude": 45.3976624,
          "longitude": 3.127012
        },
        {
          "name": "Ardoix",
          "latitude": 45.1892645,
          "longitude": 4.7471916
        },
        {
          "name": "Arenthon",
          "latitude": 46.0961032,
          "longitude": 6.3380678
        },
        {
          "name": "Arfeuilles",
          "latitude": 46.1468373,
          "longitude": 3.7387805
        },
        {
          "name": "Argentine",
          "latitude": 45.4939659,
          "longitude": 6.333809
        },
        {
          "name": "Argis",
          "latitude": 45.9320788,
          "longitude": 5.4817547
        },
        {
          "name": "Argonay",
          "latitude": 45.9476341,
          "longitude": 6.1479916
        },
        {
          "name": "Arith",
          "latitude": 45.7237923,
          "longitude": 6.0611981
        },
        {
          "name": "Arlanc",
          "latitude": 45.4237692,
          "longitude": 3.7351789
        },
        {
          "name": "Arlebosc",
          "latitude": 45.0381502,
          "longitude": 4.628137
        },
        {
          "name": "Arlempdes",
          "latitude": 44.8674891,
          "longitude": 3.906517
        },
        {
          "name": "Arlet",
          "latitude": 45.1113218,
          "longitude": 3.4074124
        },
        {
          "name": "Armix",
          "latitude": 45.8522811,
          "longitude": 5.5836219
        },
        {
          "name": "Armoy",
          "latitude": 46.3530213,
          "longitude": 6.5143332
        },
        {
          "name": "Arnac",
          "latitude": 45.0649501,
          "longitude": 2.2204481
        },
        {
          "name": "Arnas",
          "latitude": 46.0192168,
          "longitude": 4.7100589
        },
        {
          "name": "Arnayon",
          "latitude": 44.4963728,
          "longitude": 5.3163864
        },
        {
          "name": "Arpajon-sur-Cère",
          "latitude": 44.8789153,
          "longitude": 2.4636541
        },
        {
          "name": "Arpavon",
          "latitude": 44.3704705,
          "longitude": 5.2739658
        },
        {
          "name": "Arpheuilles-Saint-Priest",
          "latitude": 46.2272515,
          "longitude": 2.6699124
        },
        {
          "name": "Arras-sur-Rhône",
          "latitude": 45.1430103,
          "longitude": 4.807607
        },
        {
          "name": "Arronnes",
          "latitude": 46.0513354,
          "longitude": 3.5713616
        },
        {
          "name": "Ars-les-Favets",
          "latitude": 46.2023584,
          "longitude": 2.7537052
        },
        {
          "name": "Ars-sur-Formans",
          "latitude": 45.9903575,
          "longitude": 4.8194085
        },
        {
          "name": "Arsac-en-Velay",
          "latitude": 44.9912897,
          "longitude": 3.9532958
        },
        {
          "name": "Artas",
          "latitude": 45.5385078,
          "longitude": 5.1676283
        },
        {
          "name": "Artemare",
          "latitude": 45.8698359,
          "longitude": 5.6921466
        },
        {
          "name": "Arthaz-Pont-Notre-Dame",
          "latitude": 46.1602604,
          "longitude": 6.2660247
        },
        {
          "name": "Arthun",
          "latitude": 45.7652654,
          "longitude": 4.03702
        },
        {
          "name": "Arthémonay",
          "latitude": 45.1413017,
          "longitude": 5.0634492
        },
        {
          "name": "Artonne",
          "latitude": 46.0061097,
          "longitude": 3.1489239
        },
        {
          "name": "Arvillard",
          "latitude": 45.4014842,
          "longitude": 6.1562295
        },
        {
          "name": "Arvière-en-Valromey",
          "latitude": 45.9152219,
          "longitude": 5.7344562
        },
        {
          "name": "Arâches-la-Frasse",
          "latitude": 46.0281901,
          "longitude": 6.664621
        },
        {
          "name": "Asnières-sur-Saône",
          "latitude": 46.3858952,
          "longitude": 4.8820346
        },
        {
          "name": "Assieu",
          "latitude": 45.410174,
          "longitude": 4.8799717
        },
        {
          "name": "Astet",
          "latitude": 44.6847044,
          "longitude": 4.0212244
        },
        {
          "name": "Attignat",
          "latitude": 46.2857726,
          "longitude": 5.1823257
        },
        {
          "name": "Attignat-Oncin",
          "latitude": 45.5150887,
          "longitude": 5.7825102
        },
        {
          "name": "Aubazat",
          "latitude": 45.1264501,
          "longitude": 3.4504054
        },
        {
          "name": "Aubenas",
          "latitude": 44.6105857,
          "longitude": 4.3940934
        },
        {
          "name": "Aubenasson",
          "latitude": 44.6782001,
          "longitude": 5.1449285
        },
        {
          "name": "Auberives-en-Royans",
          "latitude": 45.0656233,
          "longitude": 5.311941
        },
        {
          "name": "Auberives-sur-Varèze",
          "latitude": 45.4259555,
          "longitude": 4.8162939
        },
        {
          "name": "Aubiat",
          "latitude": 45.9792633,
          "longitude": 3.1976591
        },
        {
          "name": "Aubignas",
          "latitude": 44.5855025,
          "longitude": 4.6309591
        },
        {
          "name": "Aubigny",
          "latitude": 46.6776387,
          "longitude": 3.1667989
        },
        {
          "name": "Aubière",
          "latitude": 45.7520247,
          "longitude": 3.1271601
        },
        {
          "name": "Aubres",
          "latitude": 44.392453,
          "longitude": 5.1552161
        },
        {
          "name": "Aubusson-d'Auvergne",
          "latitude": 45.7519228,
          "longitude": 3.5998621
        },
        {
          "name": "Aucelon",
          "latitude": 44.6156469,
          "longitude": 5.3422422
        },
        {
          "name": "Audes",
          "latitude": 46.4609815,
          "longitude": 2.5576563
        },
        {
          "name": "Augerolles",
          "latitude": 45.7343633,
          "longitude": 3.6371474
        },
        {
          "name": "Augnat",
          "latitude": 45.4126502,
          "longitude": 3.178756
        },
        {
          "name": "Aulan",
          "latitude": 44.2288288,
          "longitude": 5.4196827
        },
        {
          "name": "Aulhat-Flat",
          "latitude": 45.573878,
          "longitude": 3.3112352
        },
        {
          "name": "Aulnat",
          "latitude": 45.7923978,
          "longitude": 3.1726599
        },
        {
          "name": "Aurec-sur-Loire",
          "latitude": 45.3667695,
          "longitude": 4.2033386
        },
        {
          "name": "Aurel",
          "latitude": 44.6936329,
          "longitude": 5.3080974
        },
        {
          "name": "Auriac-l'Église",
          "latitude": 45.266333,
          "longitude": 3.1161872
        },
        {
          "name": "Aurillac",
          "latitude": 44.9280273,
          "longitude": 2.4415486
        },
        {
          "name": "Auris",
          "latitude": 45.0494321,
          "longitude": 6.0845706
        },
        {
          "name": "Aurières",
          "latitude": 45.6828925,
          "longitude": 2.918144
        },
        {
          "name": "Aurouër",
          "latitude": 46.6873837,
          "longitude": 3.3119102
        },
        {
          "name": "Aussois",
          "latitude": 45.2480851,
          "longitude": 6.7264878
        },
        {
          "name": "Authezat",
          "latitude": 45.6376475,
          "longitude": 3.1940617
        },
        {
          "name": "Autichamp",
          "latitude": 44.6786621,
          "longitude": 4.972446
        },
        {
          "name": "Autrac",
          "latitude": 45.335223,
          "longitude": 3.1282105
        },
        {
          "name": "Autrans-Méaudre en Vercors",
          "latitude": 45.1713156,
          "longitude": 5.5446471
        },
        {
          "name": "Autry-Issards",
          "latitude": 46.5441041,
          "longitude": 3.1200414
        },
        {
          "name": "Auvers",
          "latitude": 44.9981801,
          "longitude": 3.3952083
        },
        {
          "name": "Auzat-la-Combelle",
          "latitude": 45.4495855,
          "longitude": 3.3290772
        },
        {
          "name": "Auzelles",
          "latitude": 45.6142215,
          "longitude": 3.528173
        },
        {
          "name": "Auzers",
          "latitude": 45.2730585,
          "longitude": 2.4684598
        },
        {
          "name": "Auzon",
          "latitude": 45.3876652,
          "longitude": 3.3793499
        },
        {
          "name": "Aveize",
          "latitude": 45.6798919,
          "longitude": 4.4744127
        },
        {
          "name": "Aveizieux",
          "latitude": 45.5708301,
          "longitude": 4.3761615
        },
        {
          "name": "Avermes",
          "latitude": 46.5961013,
          "longitude": 3.3164032
        },
        {
          "name": "Avignonet",
          "latitude": 44.9551721,
          "longitude": 5.6656609
        },
        {
          "name": "Avressieux",
          "latitude": 45.5739191,
          "longitude": 5.6967871
        },
        {
          "name": "Avrieux",
          "latitude": 45.1859893,
          "longitude": 6.7526128
        },
        {
          "name": "Avrilly",
          "latitude": 46.3283264,
          "longitude": 3.9707316
        },
        {
          "name": "Avèze",
          "latitude": 45.5963479,
          "longitude": 2.6023078
        },
        {
          "name": "Ayat-sur-Sioule",
          "latitude": 46.0609048,
          "longitude": 2.8876891
        },
        {
          "name": "Aydat",
          "latitude": 45.6663054,
          "longitude": 2.9901012
        },
        {
          "name": "Ayn",
          "latitude": 45.5724758,
          "longitude": 5.751701
        },
        {
          "name": "Ayrens",
          "latitude": 44.9907637,
          "longitude": 2.32655
        },
        {
          "name": "Ayse",
          "latitude": 46.0894631,
          "longitude": 6.4409559
        },
        {
          "name": "Azolette",
          "latitude": 46.1915719,
          "longitude": 4.4146433
        },
        {
          "name": "Azérat",
          "latitude": 45.3531361,
          "longitude": 3.395822
        },
        {
          "name": "Badailhac",
          "latitude": 44.9143297,
          "longitude": 2.6259492
        },
        {
          "name": "Baffie",
          "latitude": 45.4762135,
          "longitude": 3.824308
        },
        {
          "name": "Bagneux",
          "latitude": 46.6479382,
          "longitude": 3.2071179
        },
        {
          "name": "Bagnols",
          "latitude": 45.4916685,
          "longitude": 2.6376953
        },
        {
          "name": "Bagnols",
          "latitude": 45.9103949,
          "longitude": 4.6204909
        },
        {
          "name": "Bains",
          "latitude": 44.9915187,
          "longitude": 3.7641575
        },
        {
          "name": "Baix",
          "latitude": 44.704737,
          "longitude": 4.7472792
        },
        {
          "name": "Balan",
          "latitude": 45.8268312,
          "longitude": 5.1075835
        },
        {
          "name": "Balazuc",
          "latitude": 44.5110181,
          "longitude": 4.3739306
        },
        {
          "name": "Balbigny",
          "latitude": 45.8299514,
          "longitude": 4.1813928
        },
        {
          "name": "Ballaison",
          "latitude": 46.2906251,
          "longitude": 6.3509596
        },
        {
          "name": "Ballons",
          "latitude": 44.2476483,
          "longitude": 5.6475439
        },
        {
          "name": "Baneins",
          "latitude": 46.1116507,
          "longitude": 4.9044977
        },
        {
          "name": "Banne",
          "latitude": 44.3596802,
          "longitude": 4.1462405
        },
        {
          "name": "Bansat",
          "latitude": 45.4849285,
          "longitude": 3.3638969
        },
        {
          "name": "Barberaz",
          "latitude": 45.5528582,
          "longitude": 5.9387763
        },
        {
          "name": "Barberier",
          "latitude": 46.2223703,
          "longitude": 3.2477158
        },
        {
          "name": "Barbières",
          "latitude": 44.9408819,
          "longitude": 5.1596184
        },
        {
          "name": "Barby",
          "latitude": 45.5705341,
          "longitude": 5.9815185
        },
        {
          "name": "Barcelonne",
          "latitude": 44.8650801,
          "longitude": 5.05345
        },
        {
          "name": "Bard",
          "latitude": 45.5902921,
          "longitude": 3.9889565
        },
        {
          "name": "Barges",
          "latitude": 44.8330905,
          "longitude": 3.8889739
        },
        {
          "name": "Barnas",
          "latitude": 44.6696527,
          "longitude": 4.1584709
        },
        {
          "name": "Barnave",
          "latitude": 44.6592053,
          "longitude": 5.3741842
        },
        {
          "name": "Barrais-Bussolles",
          "latitude": 46.2808072,
          "longitude": 3.6953741
        },
        {
          "name": "Barraux",
          "latitude": 45.4319997,
          "longitude": 5.9818463
        },
        {
          "name": "Barret-de-Lioure",
          "latitude": 44.1767187,
          "longitude": 5.5199241
        },
        {
          "name": "Barriac-les-Bosquets",
          "latitude": 45.1481613,
          "longitude": 2.2656055
        },
        {
          "name": "Barsac",
          "latitude": 44.7274609,
          "longitude": 5.3055759
        },
        {
          "name": "Bas-en-Basset",
          "latitude": 45.3167153,
          "longitude": 4.1076188
        },
        {
          "name": "Bas-et-Lezat",
          "latitude": 46.0373975,
          "longitude": 3.3040705
        },
        {
          "name": "Bassens",
          "latitude": 45.5819987,
          "longitude": 5.938667
        },
        {
          "name": "Bassignac",
          "latitude": 45.3115705,
          "longitude": 2.4042855
        },
        {
          "name": "Bassy",
          "latitude": 45.9904023,
          "longitude": 5.829935
        },
        {
          "name": "Bathernay",
          "latitude": 45.183825,
          "longitude": 4.997413
        },
        {
          "name": "Bayet",
          "latitude": 46.2584426,
          "longitude": 3.2754697
        },
        {
          "name": "Beauchastel",
          "latitude": 44.8324951,
          "longitude": 4.7937704
        },
        {
          "name": "Beaucroissant",
          "latitude": 45.343683,
          "longitude": 5.4694283
        },
        {
          "name": "Beaufin",
          "latitude": 44.7878002,
          "longitude": 5.9615753
        },
        {
          "name": "Beaufort",
          "latitude": 45.6871218,
          "longitude": 6.6023729
        },
        {
          "name": "Beaufort",
          "latitude": 45.3291617,
          "longitude": 5.1153878
        },
        {
          "name": "Beaufort-sur-Gervanne",
          "latitude": 44.7772658,
          "longitude": 5.1550385
        },
        {
          "name": "Beaujeu",
          "latitude": 46.1584395,
          "longitude": 4.580101
        },
        {
          "name": "Beaulieu",
          "latitude": 45.4436223,
          "longitude": 3.2845133
        },
        {
          "name": "Beaulieu",
          "latitude": 45.189562,
          "longitude": 5.397492
        },
        {
          "name": "Beaulieu",
          "latitude": 45.1399639,
          "longitude": 3.9516237
        },
        {
          "name": "Beaulieu",
          "latitude": 44.357171,
          "longitude": 4.2552621
        },
        {
          "name": "Beaulieu",
          "latitude": 45.4649138,
          "longitude": 2.5206571
        },
        {
          "name": "Beaulon",
          "latitude": 46.5867791,
          "longitude": 3.6732812
        },
        {
          "name": "Beaumont",
          "latitude": 46.0977799,
          "longitude": 6.1202453
        },
        {
          "name": "Beaumont",
          "latitude": 44.543806,
          "longitude": 4.1709791
        },
        {
          "name": "Beaumont",
          "latitude": 45.7499689,
          "longitude": 3.0852983
        },
        {
          "name": "Beaumont",
          "latitude": 45.3120098,
          "longitude": 3.3281495
        },
        {
          "name": "Beaumont-Monteux",
          "latitude": 45.030576,
          "longitude": 4.9194281
        },
        {
          "name": "Beaumont-en-Diois",
          "latitude": 44.5633568,
          "longitude": 5.4707454
        },
        {
          "name": "Beaumont-lès-Randan",
          "latitude": 45.9977827,
          "longitude": 3.3818902
        },
        {
          "name": "Beaumont-lès-Valence",
          "latitude": 44.8742889,
          "longitude": 4.9476169
        },
        {
          "name": "Beaune-d'Allier",
          "latitude": 46.2781672,
          "longitude": 2.8889454
        },
        {
          "name": "Beaune-sur-Arzon",
          "latitude": 45.2891471,
          "longitude": 3.8209997
        },
        {
          "name": "Beaupont",
          "latitude": 46.4274439,
          "longitude": 5.2634248
        },
        {
          "name": "Beauregard",
          "latitude": 46.0013464,
          "longitude": 4.7567476
        },
        {
          "name": "Beauregard-Baret",
          "latitude": 45.0107484,
          "longitude": 5.174102
        },
        {
          "name": "Beauregard-Vendon",
          "latitude": 45.9656853,
          "longitude": 3.1108504
        },
        {
          "name": "Beauregard-l'Évêque",
          "latitude": 45.8166308,
          "longitude": 3.2969995
        },
        {
          "name": "Beaurepaire",
          "latitude": 45.3375783,
          "longitude": 5.0438965
        },
        {
          "name": "Beaurières",
          "latitude": 44.5543143,
          "longitude": 5.5538211
        },
        {
          "name": "Beausemblant",
          "latitude": 45.213514,
          "longitude": 4.8435686
        },
        {
          "name": "Beauvallon",
          "latitude": 44.8572555,
          "longitude": 4.9024272
        },
        {
          "name": "Beauvallon",
          "latitude": 45.589802,
          "longitude": 4.7040838
        },
        {
          "name": "Beauvoir-de-Marc",
          "latitude": 45.5183423,
          "longitude": 5.0806058
        },
        {
          "name": "Beauvoir-en-Royans",
          "latitude": 45.1169568,
          "longitude": 5.3478746
        },
        {
          "name": "Beauvoisin",
          "latitude": 44.3045213,
          "longitude": 5.2142327
        },
        {
          "name": "Beauvène",
          "latitude": 44.8669138,
          "longitude": 4.5155665
        },
        {
          "name": "Beaux",
          "latitude": 45.1958269,
          "longitude": 4.0842988
        },
        {
          "name": "Beauzac",
          "latitude": 45.2527719,
          "longitude": 4.095136
        },
        {
          "name": "Bellecombe-Tarendol",
          "latitude": 44.3569836,
          "longitude": 5.3583434
        },
        {
          "name": "Bellecombe-en-Bauges",
          "latitude": 45.7367324,
          "longitude": 6.1451669
        },
        {
          "name": "Bellegarde-Poussieu",
          "latitude": 45.3754211,
          "longitude": 4.9499443
        },
        {
          "name": "Bellegarde-en-Diois",
          "latitude": 44.5387423,
          "longitude": 5.4382225
        },
        {
          "name": "Bellegarde-en-Forez",
          "latitude": 45.6407899,
          "longitude": 4.3089066
        },
        {
          "name": "Bellenaves",
          "latitude": 46.2093142,
          "longitude": 3.0693905
        },
        {
          "name": "Bellerive-sur-Allier",
          "latitude": 46.1202198,
          "longitude": 3.4036995
        },
        {
          "name": "Belleroche",
          "latitude": 46.1591065,
          "longitude": 4.4102302
        },
        {
          "name": "Bellevaux",
          "latitude": 46.2208344,
          "longitude": 6.5481981
        },
        {
          "name": "Belleville-en-Beaujolais",
          "latitude": 46.114469,
          "longitude": 4.7289752
        },
        {
          "name": "Bellevue-la-Montagne",
          "latitude": 45.2101632,
          "longitude": 3.8161831
        },
        {
          "name": "Belley",
          "latitude": 45.7430028,
          "longitude": 5.6926042
        },
        {
          "name": "Belleydoux",
          "latitude": 46.2518034,
          "longitude": 5.7819652
        },
        {
          "name": "Bellignat",
          "latitude": 46.2402912,
          "longitude": 5.6372297
        },
        {
          "name": "Belmont",
          "latitude": 45.4724451,
          "longitude": 5.3598909
        },
        {
          "name": "Belmont-Tramonet",
          "latitude": 45.5676829,
          "longitude": 5.6792816
        },
        {
          "name": "Belmont-d'Azergues",
          "latitude": 45.8673684,
          "longitude": 4.6685246
        },
        {
          "name": "Belmont-de-la-Loire",
          "latitude": 46.1612621,
          "longitude": 4.3491773
        },
        {
          "name": "Belsentes",
          "latitude": 44.9199735,
          "longitude": 4.496874
        },
        {
          "name": "Berbezit",
          "latitude": 45.290417,
          "longitude": 3.5854779
        },
        {
          "name": "Bergonne",
          "latitude": 45.5104289,
          "longitude": 3.2171129
        },
        {
          "name": "Bernex",
          "latitude": 46.3566303,
          "longitude": 6.6914994
        },
        {
          "name": "Bernin",
          "latitude": 45.263348,
          "longitude": 5.8627607
        },
        {
          "name": "Berrias-et-Casteljau",
          "latitude": 44.3792276,
          "longitude": 4.2057849
        },
        {
          "name": "Bert",
          "latitude": 46.3277927,
          "longitude": 3.7041237
        },
        {
          "name": "Bertignat",
          "latitude": 45.617387,
          "longitude": 3.6917351
        },
        {
          "name": "Berzème",
          "latitude": 44.6517752,
          "longitude": 4.5717078
        },
        {
          "name": "Bessamorel",
          "latitude": 45.1280356,
          "longitude": 4.0798164
        },
        {
          "name": "Bessans",
          "latitude": 45.2885836,
          "longitude": 7.0472524
        },
        {
          "name": "Bessas",
          "latitude": 44.3422339,
          "longitude": 4.2986268
        },
        {
          "name": "Bessay-sur-Allier",
          "latitude": 46.4506439,
          "longitude": 3.3710885
        },
        {
          "name": "Besse",
          "latitude": 45.1105542,
          "longitude": 6.2087307
        },
        {
          "name": "Besse",
          "latitude": 45.101989,
          "longitude": 2.354056
        },
        {
          "name": "Besse-et-Saint-Anastaise",
          "latitude": 45.4984657,
          "longitude": 2.9102903
        },
        {
          "name": "Bessenay",
          "latitude": 45.7711995,
          "longitude": 4.5483018
        },
        {
          "name": "Bessey",
          "latitude": 45.3898871,
          "longitude": 4.7045961
        },
        {
          "name": "Bessins",
          "latitude": 45.2052566,
          "longitude": 5.2626899
        },
        {
          "name": "Besson",
          "latitude": 46.4818085,
          "longitude": 3.2523273
        },
        {
          "name": "Bettant",
          "latitude": 45.9346742,
          "longitude": 5.3635735
        },
        {
          "name": "Betton-Bettonet",
          "latitude": 45.5289022,
          "longitude": 6.184398
        },
        {
          "name": "Beurières",
          "latitude": 45.4329036,
          "longitude": 3.777464
        },
        {
          "name": "Bey",
          "latitude": 46.2181933,
          "longitude": 4.8439941
        },
        {
          "name": "Beynost",
          "latitude": 45.8358843,
          "longitude": 4.9962311
        },
        {
          "name": "Bibost",
          "latitude": 45.797626,
          "longitude": 4.5493997
        },
        {
          "name": "Bidon",
          "latitude": 44.3583109,
          "longitude": 4.5424014
        },
        {
          "name": "Bilieu",
          "latitude": 45.4453824,
          "longitude": 5.5497608
        },
        {
          "name": "Billezois",
          "latitude": 46.2081315,
          "longitude": 3.5757167
        },
        {
          "name": "Billiat",
          "latitude": 46.0777334,
          "longitude": 5.7632191
        },
        {
          "name": "Billième",
          "latitude": 45.7179665,
          "longitude": 5.8152383
        },
        {
          "name": "Billom",
          "latitude": 45.7259882,
          "longitude": 3.3231332
        },
        {
          "name": "Billy",
          "latitude": 46.2315918,
          "longitude": 3.4415289
        },
        {
          "name": "Biol",
          "latitude": 45.4971519,
          "longitude": 5.3675442
        },
        {
          "name": "Biollet",
          "latitude": 45.9877829,
          "longitude": 2.6944095
        },
        {
          "name": "Biozat",
          "latitude": 46.0811357,
          "longitude": 3.2927026
        },
        {
          "name": "Birieux",
          "latitude": 45.9510782,
          "longitude": 5.039923
        },
        {
          "name": "Biviers",
          "latitude": 45.2440727,
          "longitude": 5.798431
        },
        {
          "name": "Bizeneuille",
          "latitude": 46.4021259,
          "longitude": 2.735269
        },
        {
          "name": "Biziat",
          "latitude": 46.2240143,
          "longitude": 4.9393221
        },
        {
          "name": "Bizonnes",
          "latitude": 45.4478097,
          "longitude": 5.3773864
        },
        {
          "name": "Blacé",
          "latitude": 46.0371208,
          "longitude": 4.6304089
        },
        {
          "name": "Blandin",
          "latitude": 45.4791063,
          "longitude": 5.4487942
        },
        {
          "name": "Blanzac",
          "latitude": 45.112573,
          "longitude": 3.8564983
        },
        {
          "name": "Blanzat",
          "latitude": 45.8250137,
          "longitude": 3.0706847
        },
        {
          "name": "Blassac",
          "latitude": 45.162241,
          "longitude": 3.3855438
        },
        {
          "name": "Blavozy",
          "latitude": 45.0623519,
          "longitude": 3.9720818
        },
        {
          "name": "Blesle",
          "latitude": 45.3108151,
          "longitude": 3.1762476
        },
        {
          "name": "Blomard",
          "latitude": 46.290769,
          "longitude": 2.964312
        },
        {
          "name": "Blot-l'Église",
          "latitude": 46.0352135,
          "longitude": 2.9564081
        },
        {
          "name": "Bloye",
          "latitude": 45.8211881,
          "longitude": 5.9501351
        },
        {
          "name": "Bluffy",
          "latitude": 45.8670876,
          "longitude": 6.2241434
        },
        {
          "name": "Blyes",
          "latitude": 45.8441669,
          "longitude": 5.2515706
        },
        {
          "name": "Boffres",
          "latitude": 44.9192421,
          "longitude": 4.6889547
        },
        {
          "name": "Bogy",
          "latitude": 45.2827277,
          "longitude": 4.7683346
        },
        {
          "name": "Bogève",
          "latitude": 46.1946056,
          "longitude": 6.439731
        },
        {
          "name": "Bohas-Meyriat-Rignat",
          "latitude": 46.1422237,
          "longitude": 5.3749008
        },
        {
          "name": "Boisset",
          "latitude": 44.7815985,
          "longitude": 2.2574396
        },
        {
          "name": "Boisset",
          "latitude": 45.3116891,
          "longitude": 3.9816041
        },
        {
          "name": "Boisset-Saint-Priest",
          "latitude": 45.5124013,
          "longitude": 4.1192544
        },
        {
          "name": "Boisset-lès-Montrond",
          "latitude": 45.62698,
          "longitude": 4.2043448
        },
        {
          "name": "Boissey",
          "latitude": 46.3723586,
          "longitude": 4.997471
        },
        {
          "name": "Bolozon",
          "latitude": 46.1969606,
          "longitude": 5.4698947
        },
        {
          "name": "Bongheat",
          "latitude": 45.7231994,
          "longitude": 3.4271652
        },
        {
          "name": "Bonlieu-sur-Roubion",
          "latitude": 44.587064,
          "longitude": 4.8680968
        },
        {
          "name": "Bonnac",
          "latitude": 45.2117057,
          "longitude": 3.1437712
        },
        {
          "name": "Bonne",
          "latitude": 46.173508,
          "longitude": 6.3180867
        },
        {
          "name": "Bonnefamille",
          "latitude": 45.5990114,
          "longitude": 5.1088383
        },
        {
          "name": "Bonneval",
          "latitude": 45.3059873,
          "longitude": 3.7332855
        },
        {
          "name": "Bonneval-sur-Arc",
          "latitude": 45.3806781,
          "longitude": 7.092006
        },
        {
          "name": "Bonnevaux",
          "latitude": 46.2926054,
          "longitude": 6.6667146
        },
        {
          "name": "Bonneville",
          "latitude": 46.0785295,
          "longitude": 6.403958
        },
        {
          "name": "Bons-en-Chablais",
          "latitude": 46.2643947,
          "longitude": 6.3578489
        },
        {
          "name": "Bonson",
          "latitude": 45.5226405,
          "longitude": 4.2245324
        },
        {
          "name": "Bonvillard",
          "latitude": 45.5848319,
          "longitude": 6.3288981
        },
        {
          "name": "Bonvillaret",
          "latitude": 45.5623002,
          "longitude": 6.3183025
        },
        {
          "name": "Borne",
          "latitude": 45.0945963,
          "longitude": 3.792103
        },
        {
          "name": "Borne",
          "latitude": 44.6115585,
          "longitude": 4.0444778
        },
        {
          "name": "Bort-l'Étang",
          "latitude": 45.7830692,
          "longitude": 3.4399669
        },
        {
          "name": "Borée",
          "latitude": 44.8939444,
          "longitude": 4.234049
        },
        {
          "name": "Bossey",
          "latitude": 46.1494838,
          "longitude": 6.1698779
        },
        {
          "name": "Bossieu",
          "latitude": 45.4188061,
          "longitude": 5.1534266
        },
        {
          "name": "Bost",
          "latitude": 46.1840458,
          "longitude": 3.5046108
        },
        {
          "name": "Bouchet",
          "latitude": 44.2967897,
          "longitude": 4.8835133
        },
        {
          "name": "Boucieu-le-Roi",
          "latitude": 45.0285446,
          "longitude": 4.6877631
        },
        {
          "name": "Boucé",
          "latitude": 46.3178048,
          "longitude": 3.4955687
        },
        {
          "name": "Boudes",
          "latitude": 45.453523,
          "longitude": 3.1841124
        },
        {
          "name": "Bougé-Chambalud",
          "latitude": 45.3187679,
          "longitude": 4.8977833
        },
        {
          "name": "Boulc",
          "latitude": 44.6358744,
          "longitude": 5.5849478
        },
        {
          "name": "Boulieu-lès-Annonay",
          "latitude": 45.2678665,
          "longitude": 4.6432222
        },
        {
          "name": "Bouligneux",
          "latitude": 46.0202508,
          "longitude": 4.9956989
        },
        {
          "name": "Bourbon-l'Archambault",
          "latitude": 46.5829994,
          "longitude": 3.0446774
        },
        {
          "name": "Bourdeau",
          "latitude": 45.676303,
          "longitude": 5.85159
        },
        {
          "name": "Bourdeaux",
          "latitude": 44.5791622,
          "longitude": 5.1666236
        },
        {
          "name": "Bourg-Argental",
          "latitude": 45.3037596,
          "longitude": 4.5621411
        },
        {
          "name": "Bourg-Lastic",
          "latitude": 45.6583013,
          "longitude": 2.5720072
        },
        {
          "name": "Bourg-Saint-Andéol",
          "latitude": 44.37437,
          "longitude": 4.6114366
        },
        {
          "name": "Bourg-Saint-Christophe",
          "latitude": 45.8841838,
          "longitude": 5.1392751
        },
        {
          "name": "Bourg-Saint-Maurice",
          "latitude": 45.6637288,
          "longitude": 6.7614522
        },
        {
          "name": "Bourg-de-Péage",
          "latitude": 45.0189234,
          "longitude": 5.0492819
        },
        {
          "name": "Bourg-en-Bresse",
          "latitude": 46.2028003,
          "longitude": 5.2468607
        },
        {
          "name": "Bourg-lès-Valence",
          "latitude": 44.9636306,
          "longitude": 4.8900225
        },
        {
          "name": "Bourget-en-Huile",
          "latitude": 45.4810331,
          "longitude": 6.2120311
        },
        {
          "name": "Bourgneuf",
          "latitude": 45.5527703,
          "longitude": 6.2515045
        },
        {
          "name": "Bourgoin-Jallieu",
          "latitude": 45.6025418,
          "longitude": 5.2747219
        },
        {
          "name": "Bournoncle-Saint-Pierre",
          "latitude": 45.3430648,
          "longitude": 3.3277019
        },
        {
          "name": "Boussy",
          "latitude": 45.8512171,
          "longitude": 5.9835161
        },
        {
          "name": "Bouvante",
          "latitude": 44.9327239,
          "longitude": 5.2991911
        },
        {
          "name": "Bouvesse-Quirieu",
          "latitude": 45.77926,
          "longitude": 5.4193308
        },
        {
          "name": "Bouvières",
          "latitude": 44.5201806,
          "longitude": 5.2218411
        },
        {
          "name": "Bouzel",
          "latitude": 45.782649,
          "longitude": 3.3176773
        },
        {
          "name": "Boyer",
          "latitude": 46.0977332,
          "longitude": 4.215452
        },
        {
          "name": "Boyeux-Saint-Jérôme",
          "latitude": 46.0357697,
          "longitude": 5.4615798
        },
        {
          "name": "Boz",
          "latitude": 46.4085204,
          "longitude": 4.9165949
        },
        {
          "name": "Bozas",
          "latitude": 45.0547481,
          "longitude": 4.6438233
        },
        {
          "name": "Bozel",
          "latitude": 45.4575933,
          "longitude": 6.6536056
        },
        {
          "name": "Boëge",
          "latitude": 46.218054,
          "longitude": 6.38743
        },
        {
          "name": "Boën-sur-Lignon",
          "latitude": 45.7498677,
          "longitude": 4.0073122
        },
        {
          "name": "Brageac",
          "latitude": 45.202607,
          "longitude": 2.2623099
        },
        {
          "name": "Braize",
          "latitude": 46.6618982,
          "longitude": 2.6643124
        },
        {
          "name": "Brangues",
          "latitude": 45.6951878,
          "longitude": 5.5417486
        },
        {
          "name": "Bransat",
          "latitude": 46.3327823,
          "longitude": 3.2168955
        },
        {
          "name": "Brassac-les-Mines",
          "latitude": 45.4156563,
          "longitude": 3.3189765
        },
        {
          "name": "Bren",
          "latitude": 45.1424664,
          "longitude": 4.9406865
        },
        {
          "name": "Brenat",
          "latitude": 45.548986,
          "longitude": 3.3109126
        },
        {
          "name": "Brens",
          "latitude": 45.716366,
          "longitude": 5.6899974
        },
        {
          "name": "Brenthonne",
          "latitude": 46.2713942,
          "longitude": 6.3961844
        },
        {
          "name": "Bresnay",
          "latitude": 46.4334428,
          "longitude": 3.2558279
        },
        {
          "name": "Bresse Vallons",
          "latitude": 46.3270225,
          "longitude": 5.1823602
        },
        {
          "name": "Bressieux",
          "latitude": 45.321727,
          "longitude": 5.2784787
        },
        {
          "name": "Bressolles",
          "latitude": 46.5296533,
          "longitude": 3.2873873
        },
        {
          "name": "Bressolles",
          "latitude": 45.8713266,
          "longitude": 5.0985106
        },
        {
          "name": "Bresson",
          "latitude": 45.1331668,
          "longitude": 5.7498416
        },
        {
          "name": "Brette",
          "latitude": 44.5875851,
          "longitude": 5.3255495
        },
        {
          "name": "Brezons",
          "latitude": 45.0049042,
          "longitude": 2.7865051
        },
        {
          "name": "Brides-les-Bains",
          "latitude": 45.4546492,
          "longitude": 6.5714301
        },
        {
          "name": "Briennon",
          "latitude": 46.1509734,
          "longitude": 4.0780854
        },
        {
          "name": "Briffons",
          "latitude": 45.6953422,
          "longitude": 2.6672128
        },
        {
          "name": "Brignais",
          "latitude": 45.6750919,
          "longitude": 4.752709
        },
        {
          "name": "Brindas",
          "latitude": 45.7181645,
          "longitude": 4.703016
        },
        {
          "name": "Brion",
          "latitude": 46.1688998,
          "longitude": 5.5477706
        },
        {
          "name": "Brion",
          "latitude": 45.2930512,
          "longitude": 5.3404324
        },
        {
          "name": "Briord",
          "latitude": 45.7681224,
          "longitude": 5.4824631
        },
        {
          "name": "Brioude",
          "latitude": 45.2966557,
          "longitude": 3.3846822
        },
        {
          "name": "Brison-Saint-Innocent",
          "latitude": 45.7404242,
          "longitude": 5.8821772
        },
        {
          "name": "Brives-Charensac",
          "latitude": 45.0435636,
          "longitude": 3.9222396
        },
        {
          "name": "Brizon",
          "latitude": 46.0345988,
          "longitude": 6.432583
        },
        {
          "name": "Brié-et-Angonnes",
          "latitude": 45.122051,
          "longitude": 5.7799264
        },
        {
          "name": "Bromont-Lamothe",
          "latitude": 45.8357247,
          "longitude": 2.805824
        },
        {
          "name": "Bron",
          "latitude": 45.7354563,
          "longitude": 4.9116171
        },
        {
          "name": "Brossainc",
          "latitude": 45.3286402,
          "longitude": 4.67703
        },
        {
          "name": "Brousse",
          "latitude": 45.6051575,
          "longitude": 3.4641985
        },
        {
          "name": "Broût-Vernet",
          "latitude": 46.1994414,
          "longitude": 3.2931742
        },
        {
          "name": "Brugheas",
          "latitude": 46.0729731,
          "longitude": 3.363918
        },
        {
          "name": "Brullioles",
          "latitude": 45.7616643,
          "longitude": 4.489978
        },
        {
          "name": "Brussieu",
          "latitude": 45.7450528,
          "longitude": 4.5201138
        },
        {
          "name": "Brégnier-Cordon",
          "latitude": 45.640323,
          "longitude": 5.6171779
        },
        {
          "name": "Brénod",
          "latitude": 46.0792352,
          "longitude": 5.6115
        },
        {
          "name": "Brézins",
          "latitude": 45.3476467,
          "longitude": 5.3058553
        },
        {
          "name": "Buellas",
          "latitude": 46.2117447,
          "longitude": 5.1467603
        },
        {
          "name": "Buis-les-Baronnies",
          "latitude": 44.2713489,
          "longitude": 5.2809625
        },
        {
          "name": "Bulhon",
          "latitude": 45.885615,
          "longitude": 3.394926
        },
        {
          "name": "Bully",
          "latitude": 45.8594782,
          "longitude": 4.5785198
        },
        {
          "name": "Bully",
          "latitude": 45.9295205,
          "longitude": 3.995328
        },
        {
          "name": "Burcin",
          "latitude": 45.4331026,
          "longitude": 5.4466878
        },
        {
          "name": "Burdignes",
          "latitude": 45.2651446,
          "longitude": 4.5433315
        },
        {
          "name": "Burdignin",
          "latitude": 46.2334624,
          "longitude": 6.4264794
        },
        {
          "name": "Burzet",
          "latitude": 44.7472485,
          "longitude": 4.234728
        },
        {
          "name": "Busset",
          "latitude": 46.0580446,
          "longitude": 3.5140007
        },
        {
          "name": "Bussières",
          "latitude": 46.0646794,
          "longitude": 2.6452659
        },
        {
          "name": "Bussières",
          "latitude": 45.8396353,
          "longitude": 4.2636017
        },
        {
          "name": "Bussières-et-Pruns",
          "latitude": 46.0055026,
          "longitude": 3.2414628
        },
        {
          "name": "Bussy-Albieux",
          "latitude": 45.7954462,
          "longitude": 4.0340105
        },
        {
          "name": "Busséol",
          "latitude": 45.6934401,
          "longitude": 3.2638228
        },
        {
          "name": "Buxières-les-Mines",
          "latitude": 46.4714143,
          "longitude": 2.9451412
        },
        {
          "name": "Buxières-sous-Montaigut",
          "latitude": 46.2035632,
          "longitude": 2.8396234
        },
        {
          "name": "Bâgé-Dommartin",
          "latitude": 46.3276678,
          "longitude": 4.9703884
        },
        {
          "name": "Bâgé-le-Châtel",
          "latitude": 46.3080851,
          "longitude": 4.9305085
        },
        {
          "name": "Bègues",
          "latitude": 46.122881,
          "longitude": 3.1390239
        },
        {
          "name": "Béard-Géovreissiat",
          "latitude": 46.1883655,
          "longitude": 5.5498348
        },
        {
          "name": "Béligneux",
          "latitude": 45.8622163,
          "longitude": 5.141509
        },
        {
          "name": "Bénivay-Ollon",
          "latitude": 44.3106318,
          "longitude": 5.1906524
        },
        {
          "name": "Bénonces",
          "latitude": 45.8424424,
          "longitude": 5.4828645
        },
        {
          "name": "Bény",
          "latitude": 46.3188293,
          "longitude": 5.27892
        },
        {
          "name": "Béréziat",
          "latitude": 46.3696877,
          "longitude": 5.0430991
        },
        {
          "name": "Bésayes",
          "latitude": 44.9687661,
          "longitude": 5.0917048
        },
        {
          "name": "Bésignan",
          "latitude": 44.3212352,
          "longitude": 5.3264902
        },
        {
          "name": "Bévenais",
          "latitude": 45.3945851,
          "longitude": 5.3923716
        },
        {
          "name": "Bézaudun-sur-Bîne",
          "latitude": 44.6111614,
          "longitude": 5.1778489
        },
        {
          "name": "Bézenet",
          "latitude": 46.333241,
          "longitude": 2.8459117
        },
        {
          "name": "Cailloux-sur-Fontaines",
          "latitude": 45.859248,
          "longitude": 4.8817355
        },
        {
          "name": "Caluire-et-Cuire",
          "latitude": 45.7986133,
          "longitude": 4.8491495
        },
        {
          "name": "Carlat",
          "latitude": 44.8776565,
          "longitude": 2.5729844
        },
        {
          "name": "Cassaniouze",
          "latitude": 44.6760125,
          "longitude": 2.3824876
        },
        {
          "name": "Cayres",
          "latitude": 44.9200254,
          "longitude": 3.806171
        },
        {
          "name": "Cayrols",
          "latitude": 44.8265582,
          "longitude": 2.2244963
        },
        {
          "name": "Ceignes",
          "latitude": 46.1262253,
          "longitude": 5.4955562
        },
        {
          "name": "Ceilloux",
          "latitude": 45.6542994,
          "longitude": 3.5143793
        },
        {
          "name": "Celles-sur-Durolle",
          "latitude": 45.882091,
          "longitude": 3.6452139
        },
        {
          "name": "Cellier-du-Luc",
          "latitude": 44.673241,
          "longitude": 3.9028884
        },
        {
          "name": "Cellieu",
          "latitude": 45.5218592,
          "longitude": 4.5306668
        },
        {
          "name": "Celoux",
          "latitude": 45.1376573,
          "longitude": 3.2594239
        },
        {
          "name": "Cenves",
          "latitude": 46.2800414,
          "longitude": 4.6631899
        },
        {
          "name": "Cercier",
          "latitude": 46.0211333,
          "longitude": 6.0464912
        },
        {
          "name": "Cercié",
          "latitude": 46.1250141,
          "longitude": 4.6702068
        },
        {
          "name": "Cerdon",
          "latitude": 46.0749708,
          "longitude": 5.4750264
        },
        {
          "name": "Cernex",
          "latitude": 46.0576695,
          "longitude": 6.0384454
        },
        {
          "name": "Certines",
          "latitude": 46.1335918,
          "longitude": 5.2638663
        },
        {
          "name": "Cervens",
          "latitude": 46.2771953,
          "longitude": 6.4466003
        },
        {
          "name": "Cervières",
          "latitude": 45.8479581,
          "longitude": 3.7519405
        },
        {
          "name": "Cerzat",
          "latitude": 45.1586052,
          "longitude": 3.4699892
        },
        {
          "name": "Cesset",
          "latitude": 46.2987184,
          "longitude": 3.1988654
        },
        {
          "name": "Cessieu",
          "latitude": 45.5694718,
          "longitude": 5.3744165
        },
        {
          "name": "Cessy",
          "latitude": 46.3157159,
          "longitude": 6.0821912
        },
        {
          "name": "Cevins",
          "latitude": 45.6104955,
          "longitude": 6.4968874
        },
        {
          "name": "Ceyrat",
          "latitude": 45.7402462,
          "longitude": 3.0651059
        },
        {
          "name": "Ceyssac",
          "latitude": 45.0350272,
          "longitude": 3.8334474
        },
        {
          "name": "Ceyssat",
          "latitude": 45.7743419,
          "longitude": 2.9216668
        },
        {
          "name": "Ceyzériat",
          "latitude": 46.1825659,
          "longitude": 5.3192179
        },
        {
          "name": "Ceyzérieu",
          "latitude": 45.8369301,
          "longitude": 5.7197264
        },
        {
          "name": "Cezay",
          "latitude": 45.8045902,
          "longitude": 3.9666892
        },
        {
          "name": "Chabanière",
          "latitude": 45.5853167,
          "longitude": 4.6185557
        },
        {
          "name": "Chabeuil",
          "latitude": 44.9088458,
          "longitude": 5.0037332
        },
        {
          "name": "Chabreloche",
          "latitude": 45.8722772,
          "longitude": 3.7002793
        },